index,location_name,location_latitude,location_longitude,location_description,flowDataExist,river,calib_indiv,calib_geo_region,route_id,bmorph,USGS_ID,area_sqkm
0,LUC,43.52766907,-116.0595539,Boise River Lucky Peak Inflow,1,tributary,0,0,78024299,1,13202000,6941.1732
1,COT,43.7208,-123.0486,Cottage Grove,1,tributary,1,1,78024815,1,14153500,269.35896
2,KER,47.6803,-114.2458,Kerr,1,tributary,0,0,78015546,1,12372000,18352.66914
3,RIM,46.66261758,-121.1248017,RIMROCK RESERVOIR - TIETON RIVER,1,tributary,1,1,78018163,1,12491500,484.32813
4,FLTI,43.4583611,-110.7970278,"Flat Creek DS of cache cr nr Moose, WY",0,tributary,0,0,78024759,0,,
5,PASAY,49.09888889,-120.5822222,PASAYTEN RIVER ABOVE CALCITE CREEK,0,tributary,0,0,78012228,0,,
6,HRSI,43.9433333,-116.1966667,"Payette River nr Horseshoe Bend, ID",1,tributary,0,0,78024254,1,13247500,5749.7778
7,NIN,47.776,-117.545,Nine Mile,1,tributary,0,0,78015579,1,12426000,13467.948
8,WICO,43.68595349,-121.6880826,"DESCHUTES R BL WICIUP RES NR LA PINE, OREG",1,tributary,0,0,78024316,1,14056500,1250.96517
9,JASO,43.99818166,-122.9059126,MIDDLE FORK WILLAMETTE RIVER AT JASPER  (NWP),1,tributary,0,0,78021764,1,14152000,3470.5866
10,LLK,47.8367,-117.8403,Long Lake,1,tributary,0,0,78015577,1,12433000,15591.7398
11,LAPO,43.6890102,-121.5028029,"LITTLE DESCHUTES RIVER NEAR LA PINE, OR",1,tributary,1,1,78024528,1,14063000,2224.80141
12,CRABC,46.8298556,-119.8311549,CRAB CREEK NEAR BEVERLY,0,tributary,0,0,78017530,0,,
13,TRY,45.9458,-117.45,Troy,1,tributary,1,1,78019945,1,13333000,8837.04588
14,ELKNA,49.86611111,-114.8683333,ELK RIVER NEAR NATAL,0,tributary,0,0,78012205,0,,
15,WEL,47.9467,-119.8656,Wells,1,columbia,1,0,78015473,1,12450700,222998.139
16,SNAI,43.1975,-112.3691667,"Snake River nr Blackfoot, ID",0,tributary,0,0,78024033,0,,
17,KETFE,48.98138889,-118.7652778,KETTLE RIVER NEAR FERRY,0,tributary,0,0,78013893,0,,
18,LIM,46.0031,-116.9169,Lime Point,1,snake,0,0,78017466,1,13317660,227919.12
19,EMMI,43.93055556,-116.4427778,Payette River Black Canyon Reservoir Inflow,1,tributary,0,0,78024239,1,13249500,7070.6727
20,HEII,43.6125,-111.66,"Snake River nr Heise, ID",1,snake,1,0,78024140,1,13037500,14897.62248
21,SELLO,46.08666667,-115.5138889,SELWAY RIVER NR LOWELL,0,tributary,0,0,78017697,0,,
22,JOHNS,44.96166667,-115.5,JOHNSON CREEK AT YELLOW PINE,0,tributary,0,0,78022315,0,,
23,ROCCR,45.26457638,-120.0219745,ROCK CREEK ABOVE WHYTE PARK NEAR CONDON,0,tributary,0,0,78020193,0,,
24,SRMO,43.65405556,-110.7154722,"Snake River at Moose, WY",0,tributary,0,0,78024194,0,,
25,ASHNO,49.20916667,-119.9897222,ASHNOLA RIVER NEAR KEREMEOS,0,tributary,0,0,78012172,0,,
26,CLABE,46.8686333,-114.1277472,CLARK FORK BELOW MISSOULA,0,tributary,0,0,78017471,0,,
27,OKFAL,49.34055556,-119.5777778,OKANAGAN RIVER AT OKANAGON FALLS,0,tributary,0,0,78011978,0,,
28,PRLI,44.08527778,-115.6222222,"South Fork Payette River at Lowman, ID",1,tributary,1,0,78021942,1,13235000,1181.03544
29,LAG,46.8228,-122.3039,Lagrande,1,tributary,1,1,78018009,1,12086500,756.27708
30,CJSTR,42.94711569,-115.981204,SNAKE RIVER AT CJ STRIKE DAM,0,tributary,0,0,78026420,0,,
31,YUMW,47.19123078,-120.9470269,"YAKIMA RIVER AT CLE ELUM, WA",1,yakima,0,0,78015913,1,12479500,1300.17498
32,PSL,48.4903,-116.9042,Priest Lake,1,tributary,1,1,78013906,1,12393500,1481.47428
33,LOCLO,46.1508333,-115.5872222,LOCHSA RIVER NR LOWELL,0,tributary,0,0,78017893,0,,
34,WHB,45.7503,-116.3239,White Bird,1,tributary,1,1,78019782,1,13317000,35094.3645
35,SANPO,48.4587718,-118.7516928,WEST FORK SANPOIL RIVER NEAR REPUBIC,0,tributary,0,0,78014182,0,,
36,BLACK,46.8994111,-113.7563194,BLACKFOOT RIVER NEAR BONNER,0,tributary,0,0,78017532,0,,
37,POWDN,44.7682084,-117.831607,POWDER RIVER AT BAKER CITY,0,tributary,0,0,78022219,0,,
38,CAR,47.02788105,-122.0326105,"Carbon River near Fairfax, WA",1,tributary,0,0,78015567,0,12094000,204.60921
39,METOLIUS,44.6262275,-121.4839433,"METOLIUS RIVER NEAR GRANDVIEW, OR",1,tributary,0,0,78022273,1,14091500,818.43684
40,SLOCR,49.46055556,-117.5644444,SLOCAN RIVER NEAR CRESCENT VALLEY,0,tributary,0,0,78011919,0,,
41,KOOTE,49.61194444,-115.6344444,KOOTENAY RIVER AT FORT STEELE,0,tributary,0,0,78012053,0,,
42,OKANA,48.2812606,-119.7045047,OKANOGAN RIVER AT MALOTT,0,tributary,0,0,78014499,0,,
43,KLC,45.75666667,-121.2088889,Klickitat,0,tributary,0,0,78019869,0,,
44,HCD,45.25138889,-116.6972222,Hells Canyon,1,snake,0,0,78019722,1,13290450,189846.267
45,AMF,42.7675,-112.8794444,Snake River at Neeley American Falls Inflow,1,snake,0,0,78026484,1,13077000,35223.864
46,CLAGA,46.20824167,-112.76735,CLARK FORK NEAR GALEN,0,tributary,0,0,78017509,0,,
47,ANA,46.0972,-116.9767,Anatone,1,snake,1,0,78017465,1,13334300,240765.4704
48,SALYP,44.72166667,-115.0163889,MIDDLE FORK SALMON RIVER AT MF LODGE NR YELLOW PINE,0,tributary,0,0,78022130,0,,
49,GVZN,43.5572222,-110.7627778,"Gros Ventre River at Zenith, WY",0,tributary,0,0,78024551,0,,
50,METTW,48.36514507,-120.1161917,METHOW RIVER AT TWISP,0,tributary,0,0,78014111,0,,
51,UMAMC,45.67207498,-118.7927637,UMATILLA RIVER AT PENDLETON,0,tributary,0,0,78020133,0,,
52,SVN,45.3486,-122.6189,T.W. Sullivan,1,willamette,1,0,78019752,1,14207740,25899.9
53,CROO,44.4923407,-121.298377,"CROOKED RIVER BELOW OPAL SPRINGS, NEAR CULVER, OR",1,tributary,0,0,78021859,1,14087400,11802.58443
54,YAKTR,48.5617222,-115.9701583,YAAK RIVER NEAR TROY,0,tributary,0,0,78013903,0,,
55,DED,44.29194444,-115.6419444,Deadwood River Deadwood Reservoir Inflow,1,tributary,1,0,78022428,1,13236500,290.07888
56,OKAPE,49.49555556,-119.6152778,OKANAGAN RIVER AT PENTICTON,0,tributary,0,0,78011986,0,,
57,HEN,44.5944444,-111.3497222,Henrys Lake Inflow,1,tributary,0,0,78022608,1,13039500,256.40901
58,BUHL,42.6658333,-114.7122222,"Snake River nr Buhl, ID",1,snake,0,0,78026454,1,13094000,59543.8701
59,PABI,44.11416667,-116.1072222,"NF Payette River nr Banks, ID",1,tributary,0,0,78021930,1,13246000,2385.38079
60,NOX,47.9611,-115.7328,Noxon Rapids,1,pend_oreille,0,0,78015487,1,12391400,56547.25167
61,PLEI,43.8961111,-116.6277778,"Payette River nr Leatha, ID",1,tributary,0,0,78024227,1,13250000,7148.3724
62,MISSI,49.87888889,-119.4130556,MISSION CREEK NEAR EAST KELOWNA,0,tributary,0,0,78012107,0,,
63,PAL,43.3508333,-111.2188889,Snake River nr Irwin Palisades Inflow,1,snake,0,0,78024158,1,13032500,13532.69775
64,VERNO,50.23833333,-119.2652778,VERNON CREEK AT OUTLET OF KALAMALKA LAKE,0,tributary,0,0,78010468,0,,
65,NEVAD,46.8907698,-113.0386674,NEVADA CREEK AT MOUTH NEAR HELMVILLE,0,tributary,0,0,78018016,0,,
66,MNRO,44.31290047,-123.2964859,LONG TOM RIVER AT MONROE  (NWP),1,tributary,0,0,78021751,1,14170000,1012.68609
67,EUGO,44.0525,-123.0827778,WILLAMETTE RIVER AT EUGENE  (NWP),0,tributary,0,0,78021761,0,,
68,MCN,45.9347,-119.2958,McNary,1,columbia,1,0,78019702,1,14019200,554257.86
69,IMNAH,45.5623784,-116.8343178,IMNAHA RIVER AT IMNAHA,0,tributary,0,0,78020139,0,,
70,AMRW,46.97761606,-121.168696,"AMERICAN RIVER NEAR NILE, WA",1,tributary,0,0,78018410,1,12488500,204.60921
71,OCHO,44.2987395,-120.7289077,"OCHOCO CR BL OCHOCO RS NR PRINEVILLE, OREG",1,tributary,1,1,78022348,1,14085300,776.997
72,CGMW,46.7759343,-123.0356919,CHEHALIS RIVER NEAR GRAND MOUND,1,tributary,0,0,78017932,1,12027500,2318.04105
73,CREO,43.5029027,-121.9733632,"CRESENT CR AT CRESENT LAKE NR CRECENT, OREG",1,tributary,0,0,78025171,1,14060000,157.98939
74,CLKTH,45.1248432,-122.0734137,CLACKAMAS RIVER ABOVE THREE LYNX CREEK,0,tributary,0,0,78019971,0,,
75,SIMHE,49.3775,-120.1516667,SIMILKAMEEN RIVER NEAR HEDLEY,0,tributary,0,0,78012155,0,,
76,CED,47.4825999,-122.2034547,"Cedar River at Renton, WA",0,tributary,0,0,78015992,0,,
77,DET,44.75377778,-122.2974444,Detroit,1,tributary,1,1,78022215,1,14178000,559.43784
78,MCD,52.0778,-118.5664,Mica,1,tributary,1,0,78006760,1,08ND007,21471.0171
79,WARMS,44.8565087,-121.1497735,WARM SPRINGS RIVER NEAR KAHNEETA HOT SPRINGS,0,tributary,0,0,78021817,0,,
80,KET,48.98444444,-118.2152778,Kettle,0,tributary,0,0,78013824,0,,
81,TRXI,43.844534,-111.884331,Teton River at Mouth,1,tributary,0,0,78024468,1,,2926.6887
82,JOHNR,44.5206992,-119.6260938,JOHN DAY RIVER AT PICTURE GORGE  NR DAYVILLE,0,tributary,0,0,78021863,0,,
83,LIBFI,48.35560278,-115.31465,FISHER RIVER NEAR LIBBY,0,tributary,0,0,78014001,0,,
84,QUECL,47.5378588,-124.3157457,QUEETS RIVER NEAR CLEARWATER,0,tributary,0,0,78015882,0,,
85,KETWE,49.23,-118.9275,KETTLE RIVER NEAR WESTBRIDGE,0,tributary,0,0,78012036,0,,
86,FRN,44.11805556,-123.2847222,Fern Ridge,1,tributary,1,1,78021753,1,14169000,652.67748
87,UMTW,46.8626264,-120.480067,"YAKIMA RIVER AT UMTANUM, WA",1,yakima,1,0,78017721,1,12484500,4128.44406
88,ROMO,43.65444444,-117.2558333,"Owyhee River nr Rome, OR",0,tributary,0,0,78024075,0,,
89,WENMO,47.49929148,-120.4245223,WENATCHEE RIVER AT MONITOR,0,tributary,0,0,78015681,0,,
90,MINI,42.67277778,-113.5002778,"Snake River nr Minidoka, ID",1,snake,0,0,78026471,1,13081500,40662.843
91,DCD,50.26666667,-116.9463889,Duncan,1,tributary,1,1,78010231,1,08NH110,2439.77058
92,CLE,47.24456209,-121.0678642,CLE ELUM RESERVOIR,1,tributary,1,1,78016114,1,12479000,525.76797
93,JCK,43.85777778,-110.59,Jackson Lake Inflow,1,tributary,1,1,78024200,1,13010500,2090.12193
94,TIECH,46.67095305,-121.0039662,TIETON RIVER AT CANAL HEADWORKS NEAR NACHES,0,tributary,0,0,78018136,0,,
95,OKA,49.11472222,-119.5638889,Okanagon in Canada,0,tributary,0,0,78011966,0,,
96,WYN,47.38036689,-123.6098916,Wynoochee River at Wynoochee Dam,1,tributary,0,0,78016860,0,12035400,106.18959
97,SUMMI,45.962345,-121.102295,KLICKITAT RIVER BELOW SUMMIT CREEK NEAR GLENWOOD,0,tributary,0,0,78019879,0,,
98,SWANR,48.02423056,-113.9788194,SWAN RIVER NEAR BIGFORK,0,tributary,0,0,78014053,0,,
99,CHEWU,48.4770898,-120.1864734,CHEWUCH RIVER AT WINTHROP,0,tributary,0,0,78014133,0,,
100,CLALO,46.39765,-112.7425389,CLARK FORK AT DEER LODGE,0,tributary,0,0,78017501,0,,
101,HOD,45.65555556,-121.5472222,Hood River,0,tributary,0,0,78020272,0,,
102,EASW,47.2387267,-121.1789787,"YAKIMA RIVER AT EASTON, WA",1,yakima,0,0,78016034,1,12505000,9479.3634
103,DONAL,51.48333333,-117.1791667,COLUMBIA RIVER AT DONALD,0,tributary,0,0,78008403,0,,
104,WEISERR,44.27,-116.7722222,"Weiser River nr Weiser, ID",1,tributary,1,1,78021786,1,13266000,3755.4855
105,ROPIT,43.7359565,-122.8734019,ROW RIVER ABOVE PITCHER CREEK  NEAR DORENA,0,tributary,0,0,78024741,0,,
106,ARK,43.59416667,-115.9222222,Boise River Arrowrock Inflow,1,tributary,0,0,78024302,1,13194000,5739.41784
107,BLU,44.1625,-122.331944,Blue River,1,tributary,0,0,78022648,1,14162200,227.91912
108,FLANF,48.4957972,-114.1267639,NORTH FORK FLATHEAD RIVER NEAR COLUMBIA FALLS,0,tributary,0,0,78013901,0,,
109,REXI,43.8258333,-111.905,"Henrys Fork nr Rexburg, ID",1,tributary,0,0,78024048,1,13056500,7562.7708
110,CRAIR,47.3604238,-118.8500022,CRAB CREEK AT IRBY,0,tributary,0,0,78015831,0,,
111,JOECA,47.27464,-116.1890491,ST JOE RIVER AT CALDER,0,tributary,0,0,78015603,0,,
112,KICHO,51.3,-116.9680556,KICKING HORSE RIVER AT GOLDEN,0,tributary,0,0,78008653,0,,
113,KIMI,42.5908333,-114.3602778,"Snake River nr Kimberly, ID",1,snake,0,0,78026461,1,13090000,57860.3766
114,OXB,44.9728,-116.8333,Oxbow,1,snake,0,0,78021664,1,13290000,188551.272
115,COLKE,48.5943461,-118.0624887,COLVILLE RIVER AT KETTLE FALLS,0,tributary,0,0,78014104,0,,
116,PRRO,44.77766079,-117.2926855,"Powder River nr Richland, OR",0,tributary,0,0,78021728,0,,
117,CGR,44.13333333,-122.2333333,Cougar,1,tributary,0,0,78022004,1,14159500,538.71792
118,ORO,46.4783,-116.2575,Orofino,1,tributary,1,0,78017670,1,13340000,14452.1442
119,PLS,46.91527,-116.95,Palouse-Lower Snake,0,tributary,0,0,78017726,0,,
120,TWSP,43.66805556,-115.7252778,"Boise River nr Twin Springs, ID",1,tributary,1,1,78024312,1,13185000,2149.6917
121,NACW,46.7454015,-120.76924,"NACHES RIVER NEAR NACHES, WA",1,tributary,0,0,78017636,1,12494000,2437.18059
122,RML,45.3,-122.3528,River Mill,1,tributary,1,0,78019938,1,14210000,1737.88329
123,CLFW,46.9065078,-121.0270249,"NACHES RIVER NEAR CLIFFDELL, WA",1,tributary,1,0,78017650,1,12489050,1010.0961
124,BFE,48.69805556,-116.3125,Bonners Ferry,1,tributary,0,0,78013845,1,12309500,32866.9731
125,ROU,44.6039,-121.2778,Round Butte,1,deschutes,0,0,78021854,1,14092100,19399.0251
126,BURO,44.35821698,-117.2732357,"Burnt River at Huntington, OR",0,tributary,0,0,78022101,0,,
127,MADRAS,44.72595225,-121.2469939,"DESCHUTES RIVER NEAR MADRAS, OR",1,deschutes,1,0,78021849,1,14092500,20201.922
128,WFWI,43.5747222,-112.0480556,"Willow Cr at mouth nr Idaho Falls, ID",1,tributary,0,0,78024702,1,13058529,
129,CHEI,44.0183333,-111.5666667,"Falls River nr Chester, ID",1,tributary,1,0,78021718,1,13049500,1302.76497
130,FORDI,49.89416667,-114.8647222,FORDING RIVER AT THE MOUTH,0,tributary,0,0,78012213,0,,
131,GCL,47.96555556,-118.9816667,Grand Coulee,1,columbia,1,0,78013696,1,12436500,193472.253
132,WESKE,49.17,-118.9744444,WEST KETTLE RIVER AT WESTBRIDGE,0,tributary,0,0,78012298,0,,
133,MROW,47.830932,-122.048459,SNOHOMISH RIVER NEAR MONROE,1,tributary,1,0,78015703,1,12150800,3980.81463
134,LMN,46.5502,-118.5335,Lower Monumental,1,snake,0,0,78017441,1,13352595,281013.915
135,DIA,48.7156,-121.1311,Diablo,0,tributary,0,0,78014007,0,,
136,RIR,43.5833333,-111.746111,Willow Cr blw Ririe Dam Ririe Dam Inflow,1,tributary,1,0,78024086,1,13058000,1623.92373
137,EGLO,42.5248471,-122.8428203,Rogue,0,tributary,0,0,78026709,0,,
138,SMH,44.3056,-122.0444,Smith R. Reservoir,0,tributary,0,0,78023280,0,,
139,KAC,47.2612262,-121.2034242,KACHESS RESERVOIR,1,tributary,1,1,78016361,1,12476000,165.75936
140,SAKW,48.42455859,-121.5684634,SAUK RIVER NEAR SAUK,1,tributary,1,0,78014127,1,12189500,1849.25286
141,APP,42.2415113,-123.1400485,Applegate,0,tributary,0,0,78026518,0,,
142,DUNDU,48.14425967,-123.129067,DUNGENESS RIVER AT DUNGENESS,0,tributary,0,0,78014025,0,,
143,DGGI,43.78194444,-111.2091667,Teton River abv S Leigh Creek,1,tributary,0,0,78024689,1,13052200,872.82663
144,BLAGA,46.5194833,-112.7931722,LITTLE BLACKFOOT RIVER NEAR GARRISON,0,tributary,0,0,78018044,0,,
145,MFPI,44.1086111,-115.9822222,"Middle Fork Payette River nr Crouch, ID",0,tributary,0,0,78022214,0,,
146,CRAMO,47.1893085,-119.265855,CRAB CREEK NEAR MOSES LAKE,0,tributary,0,0,78015820,0,,
147,PAYI,44.9072222,-116.1191667,NF Payette River at McCall,1,tributary,0,0,78022034,1,13239000,372.95856
148,AUBW,47.3123228,-122.2040082,Green River near Auburn (unregulated),1,tributary,0,0,78015850,1,12113000,1033.40601
149,LEA,44.125,-122.4694,Leaburg,0,tributary,0,0,78021950,0,,
150,LUCKI,44.78317527,-123.2345435,LUCKIAMUTE RIVER NEAR SUVER,0,tributary,0,0,78022248,0,,
151,FLATH,49.00055556,-114.4763889,FLATHEAD RIVER AT FLATHEAD,0,tributary,0,0,78013949,0,,
152,SIMPR,49.45972222,-120.5019444,SIMILKAMEEN RIVER AT PRINCETON,0,tributary,0,0,78012166,0,,
153,HAH,47.2837143,-121.797885,Green River at Howard Hanson,1,tributary,1,1,78015961,1,12105900,572.38779
154,ENTIA,47.663185,-120.250634,ENTIAT RIVER NEAR ENTIAT,0,tributary,0,0,78015708,0,,
155,JKSY,43.3722222,-110.7386111,"Snake River blw Flat Creek nr Jackson, WY",1,snake,0,0,78024190,1,13018750,6803.90373
156,SKOPO,47.3098151,-123.1770995,SKOKOMISH RIVER NEAR POTLATCH,0,tributary,0,0,78015959,0,,
157,AND,43.3436111,-115.4775,SF Boise River at Anderson Ranch,1,tributary,1,1,78024476,1,13190500,2533.01022
158,TOBAC,48.89359167,-115.0878528,TOBACCO RIVER NEAR EUREKA,0,tributary,0,0,78014139,0,,
159,SATSA,47.0006512,-123.4948838,SATSOP RIVER NEAR SATSOP,0,tributary,0,0,78017839,0,,
160,SWF,46.0606,-122.1844,Swift 1,1,tributary,1,0,78017771,1,14218000,1245.78519
161,NFSTI,48.26149178,-122.0476407,NF STILLAGUAMISH RIVER NEAR ARLINGTON,0,tributary,0,0,78014158,0,,
162,BON,45.63333333,-121.9544444,Bonneville,1,columbia,1,0,78019662,1,14128870,621338.601
163,METGO,48.5737538,-120.3850944,METHOW RIVER ABOVE GOAT CREEK NEAR MAZAMA,0,tributary,0,0,78014181,0,,
164,CSC,44.52489317,-116.0467983,NF Payette River Cascade Dam Inflow,1,tributary,1,1,78021944,1,13245000,1595.43384
165,MER,45.9564,-122.5536,Aerial (Merwin),1,tributary,0,0,78019905,1,14220500,1893.28269
166,UMATI,45.9029103,-119.3269618,UMATILLA RIVER NEAR UMATILLA,0,tributary,0,0,78020097,0,,
167,PINEC,44.9525,-116.8741667,PINE CREEK NEAR OXBOW,0,tributary,0,0,78021971,0,,
168,BLFI,43.13055556,-112.4766667,"Blackfoot River nr Blackfoot, ID",1,tributary,0,0,78024060,1,13068500,3354.03705
169,PAK,46.59622458,-121.5698084,Packwood Lake,1,tributary,0,0,78019191,1,14226500,743.32713
170,CS1,47.42333333,-123.2211111,Cushman 1,1,tributary,0,0,78016988,1,12057500,243.45906
171,LFL,47.824884,-117.941354,Little Fall,1,spokane,1,0,78015574,1,12433500,16420.5366
172,LOS,42.6711,-122.6736,Lost Creek,1,tributary,1,0,78026735,1,14335000,1683.4935
173,JOHNF,44.8137582,-119.4316565,NORTH FORK JOHN DAY RIVER AT MONUMENT,0,tributary,0,0,78021707,0,,
174,RIS,47.3325,-120.08,Rock Island,1,columbia,1,0,78015460,1,12462600,231545.106
175,CLADR,46.71191389,-113.3307806,CLARK FORK NEAR DRUMMOND,0,tributary,0,0,78017483,0,,
176,GRANB,49.04416667,-118.4386111,GRANBY RIVER NEAR GRAND FORKS,0,tributary,0,0,78012303,0,,
177,WHS,45.7522,-121.5258,White Salmon,0,tributary,0,0,78019961,0,,
178,GOSO,43.96666667,-122.9513889,COAST FORK WILLAMETTE RIVER NEAR GOSHEN 3SE  (NWP),1,tributary,0,0,78022043,1,14157500,1662.77358
179,TULIN,45.35067559,-122.6762044,TUALATIN RIVER AT WEST LINN,0,tributary,0,0,78019754,0,,
180,BLWLSALMON,42.76351349,-114.8883902,"Snake River blw Lower Salmon Falls nr Hagerman, ID",1,snake,1,0,78026448,1,13134500,83397.678
181,FAL,43.94429299,-122.774794,Falls Creek,1,tributary,1,0,78024327,1,14151000,481.73814
182,FOS,44.40138889,-122.6847222,Foster,1,tributary,0,0,78022222,1,,1276.86507
183,TOM,47.595,-115.36,Thompson Falls,1,pend_oreille,1,0,78015499,1,12389000,54682.45887
184,CALAP,44.62067728,-123.1289843,CALAPOOIA RIVER AT ALBANY,0,tributary,0,0,78022132,0,,
185,UBK,48.6494,-121.6894,Upper Baker,1,tributary,1,1,78014240,1,12191600,556.84785
186,LWG,46.6678,-117.4439,Lower Granite,1,snake,1,0,78017453,1,13343500,267286.968
187,JFFO,44.7147222,-123.01425,SANTIAM RIVER AUX NEAR JEFFERSON 1W  (NWP),1,tributary,0,0,78022102,1,14189000,4636.0821
188,BDDI,43.539613,-116.0945556,"Boise River blw Diversion Dam nr Boise, ID",0,tributary,0,0,78024293,0,,
189,LCF,47.30194444,-115.0863889,Lower Clark Fork,0,tributary,0,0,78015515,0,,
190,HGH,48.34166667,-114.0083333,Hungry Horse,1,tributary,1,1,78013953,1,12362500,4283.84346
191,SKC,48.52428059,-121.770974,"Skagit River near Concrete, Wa",0,tributary,0,0,78013989,0,,
192,OKAOR,48.9307184,-119.4203419,OKANOGAN RIVER NEAR OROVILLE,0,tributary,0,0,78013823,0,,
193,MALNF,43.9075,-118.1533333,NORTH FORK MALHEUR RIVER,0,tributary,0,0,78024357,0,,
194,ENTAR,47.81846178,-120.4231438,ENTIAT RIVER NEAR ARDENVOIR,0,tributary,0,0,78015749,0,,
195,DUNBB,50.63805556,-117.0472222,DUNCAN RIVER BELOW B.B. CREEK,0,tributary,0,0,78010248,0,,
196,SIMOR,48.9346056,-119.4420105,SIMILKAMEEN RIVER AT OROVILLE,0,tributary,0,0,78013968,0,,
197,BRI,49.32444444,-117.6202778,Brilliant,1,tributary,0,0,78011915,1,08NJ001,49986.807
198,BENO,43.93011715,-121.4119746,"DESCHUTES R AT BENHAM FALLS NR BEND, OREG",1,deschutes,1,0,78024301,1,14064500,4555.79241
199,SKAMO,48.4448278,-122.3354369,SKAGIT RIVER NEAR MOUNT VERNON,0,tributary,0,0,78013981,0,,
200,CLAPL,47.4292,-114.8565333,CLARK FORK RIVER NEAR PLAINS,0,tributary,0,0,78015509,0,,
201,MON,47.6594,-117.4481,Monroe Street,1,tributary,0,0,78015582,1,12422500,11111.0571
202,NOSAN,44.7067885,-122.1011859,NO SANTIAM RIVER BLW BOULDER CRK  NR DETROIT,0,tributary,0,0,78022292,0,,
203,ANTI,43.96694444,-111.6725,"Henrys Fork at St. Anthony, ID",1,tributary,0,0,78024051,1,13050500,4584.2823
204,GLBW,47.83732546,-121.6667809,SKYKOMISH RIVER NEAR GOLD BAR  WA,1,tributary,0,0,78015902,1,12134500,1385.64465
205,SPILL,50.90416667,-116.4058333,SPILLIMACHEEN RIVER NEAR SPILLIMACHEEN,0,tributary,0,0,78010120,0,,
206,CRPW,46.93926375,-123.3143194,Chehalis River at Porter,1,tributary,1,0,78017897,1,12031000,3351.44706
207,LGS,46.5872,-118.0258,Little Goose,1,snake,0,0,78017447,1,13343930,269099.961
208,BOX,48.78111111,-117.4152778,Box,1,pend_oreille,0,0,78013727,1,12396500,64490.751
209,RVC,51.0494,-118.1939,Revelstoke,1,columbia,0,0,78008362,1,08ND011,26417.898
210,ISL,44.41666667,-111.3947222,"Henrys Fork nr Island Park, ID Island Park Inflow",1,tributary,0,0,78022223,1,13042500,1245.78519
211,KEE,47.32122417,-121.3362047,KEECHELUS RESERVOIR - YAK AT MARTIN,1,tributary,0,0,78016805,1,12474500,142.44945
212,WINDR,45.7267837,-121.794799,WIND RIVER NEAR CARSON,0,tributary,0,0,78020263,0,,
213,CAB,48.08805556,-116.0727778,Cabinet,1,pend_oreille,0,0,78013761,1,12392000,57168.84927
214,CRNIC,51.24388889,-116.9116667,COLUMBIA RIVER AT NICHOLSON,0,tributary,0,0,78008413,0,,
215,SWAI,43.2918313,-116.4209492,"Snake River nr Murphy, ID",1,snake,1,0,78024019,1,13172500,108520.581
216,COWKO,46.4662217,-122.1089856,COWLITZ RIVER NEAR KOSMOS,0,tributary,0,0,78017944,0,,
217,BFKY,43.83805556,-110.4408333,"Buffalo Fork nr Moran, WY",0,tributary,0,0,78024601,0,,
218,YAKMA,46.23124238,-119.9994858,YAKIMA RIVER AT MABTOM,0,tributary,0,0,78017614,0,,
219,STILL,48.31905278,-114.3871583,STILLWATER RIVER NEAR WHITEFISH,0,tributary,0,0,78014126,0,,
220,ALD,46.8025,-122.3102778,Alder,0,tributary,0,0,78018047,0,,
221,RRH,47.5244,-120.3011,Rocky Reach,1,columbia,0,0,78015466,1,12453700,227401.122
222,CISPU,46.44705689,-121.8639783,CISPUS RIVER NEAR RANDLE,0,tributary,0,0,78018030,0,,
223,BITWF,45.72482778,-114.2822944,WEST FORK BITTERROOT RIVER NEAR CONNER,0,tributary,0,0,78020300,0,,
224,LISPO,47.78100099,-117.4963338,LITTLE  SPOKANE RIVER NEAR DARTFORD,0,tributary,0,0,78015649,0,,
225,WENPE,47.5831777,-120.6195306,WENATCHEE RIVER AT PESHASTIN,0,tributary,0,0,78015690,0,,
226,SALY,43.0797222,-111.0372222,"Salt River ab reservoir nr Etna, WY",0,tributary,0,0,78024173,0,,
227,ROCKC,46.7223361,-113.683061,ROCK CREEK NEAR CLINTON,0,tributary,0,0,78017683,0,,
228,ALB,44.6333,-123.1,Albany,1,tributary,0,0,78021743,1,14174000,12535.5516
229,TRB,44.2681,-122.0486,Trail Bridge,0,tributary,0,0,78022343,0,,
230,BITDA,45.97205,-114.1412333,BITTERROOT RIVER NEAR DARBY,0,tributary,0,0,78019935,0,,
231,WHYCHUS,44.2337268,-121.5669877,"WHYCHUS CREEK NEAR SISTERS, OR",1,tributary,0,0,78023007,1,14075000,116.54955
232,COEUR,47.7061111,-115.9791667,NF COEUR D ALENE R AB SHOSHONE CK NR PRICHARD,0,tributary,0,0,78015712,0,,
233,GRAO,42.43039607,-123.3178365,Grants Pass,0,tributary,0,0,78026687,0,,
234,TUMO,44.08761679,-121.3728117,"TUMALO CREEK BL TUMALO FEED CANAL NR BEND, OR",1,tributary,0,0,78022888,1,14073001,121.72953
235,RAWW,46.5323332,-121.9567607,COWLITZ RIVER AT RANDALL,1,tributary,0,0,78018000,0,14231000,1401.18459
236,WTLO,44.48472222,-122.8166667,SOUTH SANTIAM RIVER AT WATERLOO  (NWP),1,tributary,0,0,78022154,1,14187500,1657.5936
237,FLATW,47.9790972,-113.5606833,SOUTH FORK OF FLATHEAD RIVER ABOVE TWIN CREEK NEAR HUNGRY HORSE,0,tributary,0,0,78015843,0,,
238,TEAI,43.9272222,-111.6138889,"Teton River nr St. Anthony, ID",1,tributary,1,1,78024481,1,13055000,2268.83124
239,BLADA,42.81527778,-111.5066667,BLACKFOOT RIVER AT BLACKFOOT DAM,0,tributary,0,0,78026978,0,,
240,CFM,48.36194444,-114.1838889,Columbia Falls,1,tributary,0,0,78013772,1,12363000,11561.71536
241,PARW,46.497222,-120.441667,"YAKIMA RIVER NEAR PARKER, WA",1,yakima,0,0,78017626,1,12477000,486.91812
242,TUCAN,46.5054217,-118.0663393,TUCANNON RIVER NEAR STARBUCK,0,tributary,0,0,78017946,0,,
243,HRJW,43.2985408,-110.6701957,"Hoback River nr Jackson, WY",0,tributary,0,0,78024552,0,,
244,JOHND,45.5876278,-120.4094919,JOHN DAY RIVER AT MCDONALD FERRY,0,tributary,0,0,78019727,0,,
245,GREY,43.14305556,-110.9769444,"Greys River ab reservoir nr Alpine, WY",0,tributary,0,0,78024341,0,,
246,DWR,46.51527778,-116.2961111,Dworshak,1,tributary,1,1,78017689,1,13341000,6319.5756
247,WENPL,47.7628995,-120.6662039,WENATCHEE RIVER NEAR PLAIN,0,tributary,0,0,78015711,0,,
248,BFTI,43.125278,-112.518889,"Snake River nr Blackfoot, ID",1,snake,1,0,78026492,1,13069500,29292.7869
249,BSHI,43.26277778,-112.0477778,"Blackfoot River nr Shelley, ID",1,tributary,1,0,78024156,1,13066000,2323.22103
250,MILI,42.52805556,-114.0183333,"Snake River at Milner, ID",1,snake,1,0,78026465,1,13087995,44496.0282
251,FLAWE,48.49551667,-114.0102083,MIDDLE FORK FLATHEAD RIVER NEAR WEST GLACIER,0,tributary,0,0,78013776,0,,
252,HRFW,47.80674726,-124.2510329,HOH RIVER AT US HIGHWAY 101 NEAR FORKS,1,tributary,0,0,78015888,1,12041200,655.26747
253,WEII,44.24555556,-116.9808333,"Snake River nr Weiser, ID",1,snake,1,0,78021677,1,13269000,179227.308
254,MAY,46.5022,-122.6011,Mayfield,1,tributary,0,0,78017902,1,14238000,3625.986
255,SFNI,43.55055556,-115.7219444,SOUTH FORK BOISE AT NEAL BRIDGE,0,tributary,0,0,78024461,0,,
256,WAT,49.0039,-117.6114,Waneta,1,tributary,0,0,78011902,0,,66821.742
257,BULLY,43.95821569,-117.34268,BULLY CREEK NEAR VALE,0,tributary,0,0,78024059,0,,
258,CULO,44.4987293,-121.3211558,"DESCHUTES RIVER NEAR CULVER, OR",1,deschutes,0,0,78021871,1,14076500,7005.92295
259,SKHI,43.0022222,-115.2025,"Snake River at King Hill, ID",1,snake,1,0,78026439,1,13154500,92721.642
260,BLADR,46.9794944,-113.092186,NORTH FORK OF BLACKFOOT RIVER ABOVE DRY GULCH NEAR OVANDO,0,tributary,0,0,78017593,0,,
261,JOCDI,47.31211389,-114.2973778,JOCKO RIVER AT DIXON,0,tributary,0,0,78015915,0,,
262,SILSP,46.1794972,-112.780561,SILVER BOW CREEK AT WARM SPRINGS,0,tributary,0,0,78017510,0,,
263,MOS,46.5353,-122.4236,Mossyrock,1,tributary,1,1,78017926,1,14235000,3009.56838
264,ELKFE,49.51,-115.0713889,ELK RIVER AT FERNIE,0,tributary,0,0,78012165,0,,
265,SALSM,45.1836111,-113.8952778,SALMON RIVER AT SALMON,0,tributary,0,0,78019850,0,,
266,HARO,44.26777778,-123.1669444,WILLAMETTE RIVER AT HARRISBURG  (NWP),1,willamette,0,0,78021760,1,14166000,8857.7658
267,BULWA,49.49305556,-115.3638889,BULL RIVER NEAR WARDENER,0,tributary,0,0,78012167,0,,
268,SUV,48.8527001,-117.2899644,Sullivan Lake,1,tributary,0,0,78014299,1,12397500,315.97878
269,OWY,43.65444444,-117.2558333,Owyhee Reservoir Inflow,1,tributary,1,1,78024072,1,13183000,28904.2884
270,CLERI,46.96660078,-113.378687,CLEARWATER RIVER AT CLEARWATER,0,tributary,0,0,78017790,0,,
271,KALAR,46.0470581,-122.8376072,KALAMA RIVER NEAR KALAMA,1,tributary,0,0,78017798,1,14223600,523.17798
272,METPA,48.0773639,-119.9850723,METHOW RIVER NEAR PATEROS,0,tributary,0,0,78014092,0,,
273,THOMP,47.5918583,-115.229536,THOMPSON RIVER NEAR THOMPSON FALLS,0,tributary,0,0,78015705,0,,
274,WILNF,43.80138889,-122.5513889,MF WILLAMETTE RIVER BLW N FORK  NR OAKRIDGE,0,tributary,0,0,78024531,0,,
275,TMY,45.11373009,-121.8150775,Timothy Meadows,0,tributary,0,0,78020507,0,,
276,ALF,48.1822,-117.0333,Albeni Falls,1,pend_oreille,1,0,78013743,1,12395500,62677.758
277,ARD,49.3394,-117.7719,Hugh Keenleyside (Arrow),1,columbia,1,0,78011933,1,,36518.859
278,BOMI,43.6848841,-116.5737442,"Boise River nr Middleton, ID",1,tributary,0,0,78024284,1,13210050,7498.02105
279,PARI,43.78166667,-116.9727778,"Boise River nr Parma, ID",1,boise,1,0,78024271,1,13213000,10282.2603
280,STEHE,48.32958017,-120.6917668,STEHEKIN RIVER AT STEHEKIN,0,tributary,0,0,78014191,0,,
281,GOR,48.69805556,-121.2069444,Gorge,0,tributary,0,0,78014004,0,,
282,RYGO,42.43734597,-122.9872678,Raygold,0,tributary,0,0,78026699,0,,
283,BEAVE,51.50972222,-117.4616667,BEAVER RIVER NEAR THE MOUTH,0,tributary,0,0,78008705,0,,
284,KIOW,46.25346748,-119.4780794,"YAKIMA RIVER AT KIONA, WA",1,yakima,1,0,78017609,1,12510500,14542.79385
285,SHA,48.54,-121.7419,Lower Baker,0,tributary,0,0,78014185,0,,
286,YAMMC,45.2056719,-123.1826047,SOUTH YAMHILL RIVER AT MCMINNVILLE,0,tributary,0,0,78019864,0,,
287,WOODGOOD,42.88638889,-114.8030556,"Malad River nr Gooding, ID",1,tributary,1,0,78026520,1,13152500,7744.0701
288,SAN,45.4490094,-122.2450885,BULL RUN,0,tributary,0,0,78020148,0,,
289,PRPI,44.0422222,-116.9252778,"Payette River nr Payette, ID",1,payette,1,0,78021830,1,13251000,8391.5676
290,JDA,45.71472222,-120.6936111,John Day,1,columbia,1,0,78019681,1,14048006,585337.74
291,LEONI,48.617719,-116.0474073,KOOTENAI RIVER AT LEONIA,0,tributary,0,0,78013849,0,,
292,PRD,46.6289,-119.8636,Priest Rapids,1,columbia,1,0,78017419,1,12472800,248639.04
293,WILPO,45.5175,-122.6691667,WILLAMETTE RIVER AT PORTLAND,0,tributary,0,0,78019746,0,,
294,SFBOI,43.4958333,-115.3080556,SF BOISE RIVER NR FEATHERVILLE,0,tributary,0,0,78024520,0,,
295,CRAO,43.75345177,-121.7836399,"DESCHUTES R BL CRANE PRAIRIE RES NR PINE, OREG",1,tributary,0,0,78024325,1,14054000,657.85746
296,WHT,45.24166667,-121.0938889,White River - Wapinitia,0,tributary,0,0,78020161,0,,
297,CHJ,47.99444444,-119.6347222,Chief Joseph,1,columbia,0,0,78015475,1,12438000,195285.246
298,SNYI,43.8761111,-116.9825,"Snake River at Nyssa, OR",0,tributary,0,0,78024001,0,,
299,CLKEN,46.21652359,-119.0997323,COLUMBIA RIVER AT CLOVER ISLAND AT KENNEWICK,0,tributary,0,0,78017402,0,,
300,LOP,43.9347,-122.8333,Lookout Point Inflow,1,tributary,1,1,78024498,1,,
301,SALMF,45.2936111,-114.5963889,MIDDLE FORK SALMON RIVER AT MOUTH NR SHOUP,0,tributary,0,0,78019888,0,,
302,ROS,48.7328,-121.0672,Ross,1,tributary,1,1,78014012,1,12175000,2587.40001
303,CHL,47.83472222,-120.0119444,Chelan,1,tributary,1,1,78015651,1,12452500,2393.15076
304,GPR,44.4493,-122.5497,Green Peter,1,tributary,1,1,78022298,1,14186500,743.32713
305,WAN,46.8881,-119.9836,Wanapum,1,columbia,0,0,78017428,1,12464612,234912.093
306,MOLAL,45.24428767,-122.687314,MOLALLA RIVER NEAR CANBY,0,tributary,0,0,78019952,0,,
307,BUM,46.87261385,-121.292586,BUMPING RESERVOIR,1,tributary,0,0,78018389,1,12488000,183.88929
308,REREG,45.6220678,-120.9056203,DESCHUTES RIVER AT MOODY  NEAR BIGGS,0,tributary,0,0,78019827,0,,
309,SPD,46.4486,-116.8264,Spalding,1,tributary,0,0,78017661,1,13342500,24786.2043
310,FALI,44.0686111,-111.2413889,"Falls River nr Squirrel, ID",1,tributary,0,0,78022257,1,13047500,852.10671
311,ORTW,47.03926867,-122.2078925,"Puyallup River near Orting, Wa",1,tributary,1,0,78015643,1,12093500,445.47828
312,WILLA,45.2845625,-122.9614893,WILLAMETTE RIVER AT NEWBERG,0,tributary,0,0,78019760,0,,
313,METWI,48.4734787,-120.1773063,METHOW RIVER AT WINTHROP,0,tributary,0,0,78014125,0,,
314,VAN,45.62067265,-122.6734306,COLUMBIA RIVER AT VANCOUVER,0,tributary,0,0,78019655,0,,
315,SHYI,43.41305556,-112.135,"Snake River nr Shelley, ID",1,snake,0,0,78024037,1,13060000,25356.0021
316,MOREA,48.99916667,-116.1797222,PORTNEUF RIVER AT POCATELLO ID,0,tributary,0,0,78013977,0,,
317,DOR,43.78472222,-122.9847222,Dorena,1,tributary,1,1,78024645,1,14155500,699.2973
318,PUY,47.20843358,-122.3270652,Purallup River at Puyallup,0,tributary,0,0,78015559,0,,
319,MALHEUR,43.9875,-117.2188889,"Malheur River blw Nevada Dam nr Vale, OR",1,tributary,1,0,78024058,1,13233300,10049.1612
320,HCR,43.7183,-122.4339,Hills Creek,1,tributary,0,0,78024606,1,14145500,1015.27608
321,BDY,48.98722222,-117.3475,Boundary,1,pend_oreille,1,0,78011906,1,12398600,65267.748
322,TOUW,46.33388889,-122.8333333,TOUTLE RIVER AT TOWER ROAD NEAR SILVER LAKE,1,tributary,1,0,78017968,0,14242580,1284.63504
323,MUC,49.1778,-117.7164,Murphy Creek,1,columbia,1,0,78011912,1,,88098.50985
324,SANRE,48.47738367,-118.7300255,SANPOIL RIVER AB 13 MILE CREEK NEAR REPUBLIC,0,tributary,0,0,78014209,0,,
325,OAK,45.0712319,-121.9406345,Oak Grove,0,tributary,0,0,78020342,0,,
326,MMD,47.1467703,-121.8601066,White River at Mud Mountain,1,tributary,1,0,78015719,1,12097850,971.24625
327,MEHO,44.7890109,-122.6186967,NORTH SANTIAM RIVER AT MEHAMA  (NWP),1,tributary,0,0,78022131,1,14183000,1693.85346
328,GLENW,46.08873348,-121.2595207,KLICKITAT RIVER NEAR GLENWOOD,0,tributary,0,0,78018037,0,,
329,HFAI,44.0697222,-111.5105556,"Henrys Fork nr Ashton, ID",1,tributary,1,0,78022109,1,13046000,2841.21903
330,GRSY,44.123767,-110.81805,Grassy Lake Inflow,1,tributary,0,0,78023041,1,13046500,25.8999
331,YGVW,46.21679857,-119.9178163,"YAKIMA RIVER AT EUCLID RD BR NEAR GRANDVIEW, WA",1,yakima,0,0,78017613,1,12509050,13985.946
332,KLICK,45.84305556,-121.0580556,Little KLICKITAT RIVER NEAR WAHKIACUS,0,tributary,0,0,78020231,0,,
333,BIGI,43.66055556,-116.2791667,"Boise River at Glenwood Bridge nr Boise, ID",1,tributary,0,0,78024287,1,13205995,
334,WHM,47.0114831,-123.6554417,"Wynoochee River above black Creek near Montesano, WA",0,tributary,0,0,78015949,0,,
335,WWA,46.0278,-118.7286,Walla Walla,0,tributary,0,0,78017581,0,,
336,IHR,46.25055556,-118.8819444,Ice Harbor,1,snake,1,0,78017434,1,13353000,281013.915
337,PFL,47.7031,-116.9778,"Post Falls, Lake Coeur D'Alene Inflow",1,tributary,1,1,78015586,1,12419000,9945.5616
338,MALAB,43.57444444,-118.2097222,MALHEUR RIVER ABOVE NORTH FORK MALHEUR RIVER,0,tributary,0,0,78024308,0,,
339,AUGW,46.53596038,-120.4733968,AHTANUM CREEK AT UNION GAP,1,tributary,1,0,78017976,1,12502500,448.06827
340,MORI,43.64805556,-115.9897222,"Mores Creek in the vicinity of Boise, ID",0,tributary,0,0,78024672,0,,
341,BRN,44.83638889,-116.8994444,Brownlee,1,snake,0,0,78021665,1,13289710,188007.3741
342,WRB,47.17426836,-122.0203897,White River at Buckley,0,tributary,0,0,78015701,0,,
343,STREG,47.2967111,-115.122625,St. REGIS RIVER NEAR St. REGIS,0,tributary,0,0,78015908,0,,
344,YAL,45.9639,-122.3314,Yale,0,tributary,0,0,78019919,0,,
345,COR,49.46694444,-117.4669444,Corra Linn,1,tributary,0,0,78011959,1,08NJ158,45583.824
346,GOLDS,51.66833333,-118.5969444,GOLDSTREAM RIVER BELOW OLD CAMP CREEK,0,tributary,0,0,78008661,0,,
347,WAV,44.07,-122.77,Walterville,0,tributary,0,0,78021947,0,,
348,PRIPR,48.2197222,-116.9141667,PRIEST RIVER NEAR PRIEST RIVER,0,tributary,0,0,78013896,0,,
349,SALSA,49.04694444,-117.2936111,SALMO RIVER NEAR SALMO,0,tributary,0,0,78012204,0,,
350,VIDO,44.1248487,-122.47062,MCKENZIE RIVER NEAR VIDA 5E  (NWP),1,tributary,1,0,78021960,1,14162500,2408.6907
351,BLKI,43.0058,-111.7156,Blackfoot Reservoir Inflow,0,tributary,0,0,78026636,0,,
352,TULPR,49.4575,-120.5180556,TULAMEEN RIVER AT PRINCETON,0,tributary,0,0,78012310,0,,
353,TOUCH,46.26888889,-118.2211111,TOUCHET RIVER AT BOLLES,0,tributary,0,0,78018055,0,,
354,ROCHI,45.74777778,-120.4366667,ROCK CREEK AT OLD HIGHWAY 8 BRIDGE,0,tributary,0,0,78020375,0,,
355,LRCW,46.06039127,-121.984531,LEWIS RIVER NEAR MUDDY RIVER NEAR COUGAR,0,tributary,0,0,78018073,0,14216000,587.92773
356,WILCO,47.6629263,-118.9305666,WILSON CREEK BELOW CORBET DRAW NEAR ALMIRA,0,tributary,0,0,78015942,0,,
357,TWISP,48.3698671,-120.148693,TWISP RIVER NEAR TWISP,0,tributary,0,0,78014186,0,,
358,LIB,48.4117,-115.3094,Libby,1,tributary,1,1,78013865,1,12301933,23271.06015
359,OKANO,48.632375,-119.4617229,OKANOGAN RIVER NEAR TONASKET,0,tributary,0,0,78013812,0,,
360,WEN,45.34638889,-118.1238889,Grande Ronde,0,tributary,0,0,78020167,0,,
361,LARMA,50.26305556,-116.9672222,LARDEAU RIVER AT MARBLEHEAD,0,tributary,0,0,78010424,0,,
362,ASOTI,46.34071536,-117.0559898,ASOTIN CREEK AT ASOTIN,0,tributary,0,0,78018074,0,,
363,DEBO,44.08289525,-121.30781,"DESCHUTES RIVER BELOW BEND, OREG",1,deschutes,0,0,78021903,1,14070500,4918.39101
364,BRUNEAU,42.7711111,-115.7202778,"Bruneau River nr Hot Spring, ID",1,tributary,1,0,78026690,1,13168500,6811.6737
365,SLM,44.9442863,-123.0428742,Salem,1,willamette,1,0,78021738,1,14191000,18855.1272
366,FLINT,46.62872778,-113.1506917,FLINT CREEK NEAR DRUMMOND,0,tributary,0,0,78017997,0,,
367,QUIQU,47.4575863,-123.8893446,QUINAULT RIVER AT QUINAULT LAKE,0,tributary,0,0,78015953,0,,
368,HANGM,47.6526688,-117.449658,HANGMAN CREEK AT SPOKANE,0,tributary,0,0,78015836,0,,
369,TDA,45.6075,-121.1722,The Dalles,1,columbia,1,0,78019675,1,14105700,613827.63
370,BITCO,45.9306694,-114.1231028,EAST FORK BITTERROT RIVER NEAR CONNER,0,tributary,0,0,78019949,0,,
371,PRVO,44.1131815,-120.7955699,"CROOKED RIVER NEAR PRINEVILLE, OR",1,tributary,1,1,78021901,1,14080500,6992.973
372,COWCA,46.2748332,-122.9145587,COWLITZ RIVER AT CASTLE ROCK,0,tributary,0,0,78017888,0,,
373,ILLEC,51.01361111,-118.0825,ILLECILLEWAET RIVER AT GREELEY,0,tributary,0,0,78010220,0,,
374,TIDO,44.385954,-123.831778,"ALSEA RIVER NR TIDEWATER, OR",1,tributary,1,0,78022217,1,14306500,865.05666
375,BGCW,47.784536,-122.97961,"BIG QUILCENE RIVER BELOW DIVERSION NR QUILCENE, WA",1,tributary,0,0,78016323,0,12052210,127.945506
376,CALW,47.960077,-124.392987,"CALAWAH RIVER NR FORKS, WA",1,tributary,0,0,78015753,0,12043000,334.10871
377,CSCW,48.526231,-121.415405,"CASCADE RIVER AT MARBLEMOUNT, WA",1,tributary,0,0,78014276,0,12182500,445.47828
378,DOTW,46.617324,-123.277644,"CHEHALIS RIVER NR DOTY, WA",1,tributary,0,0,78018208,1,12020000,292.66887
379,MORW,47.409444,-121.722778,Chester Morse Reservoir Inflow,1,tributary,0,0,78016113,1,,
380,DKBW,47.683981,-123.011551,"DUCKABUSH RIVER NEAR BRINNON, WA",1,tributary,0,0,78017045,1,12054000,172.234335
381,DRSW,48.014258,-123.132677,"DUNGENESS RIVER NR SEQUIM, WA",1,tributary,0,0,78014055,1,12048000,404.03844
382,ELWW,48.054811,-123.583246,"ELWHA RIVER AT MCDONALD BR NR PT ANGELES, WA",1,tributary,0,0,78014054,1,12045500,696.70731
383,GEEW,47.153441,-121.635654,"GREENWATER RIVER AT GREENWATER, WA",1,tributary,0,0,78016441,0,12097500,190.364265
384,ISSW,47.552323,-122.047898,"ISSAQUAH CREEK NR MOUTH NR ISSAQUAH, WA",1,tributary,0,0,78016206,1,12121600,146.593434
385,SYCO,45.47762,-122.507869,JOHNSON CREEK AT SYCAMORE,1,tributary,0,0,78021167,1,14211500,69.411732
386,MFNW,48.779283,-122.106543,"MF NOOKSACK RIVER NR DEMING, WA",1,tributary,0,0,78014376,0,12208000,189.846267
387,PRSO,42.730405,-122.516425,Rogue River below Prospect,1,tributary,0,0,78026741,1,14330000,981.60621
388,AGNO,42.580387,-124.059533,"ROGUE RIVER NR AGNESS, OR",1,rogue,1,0,78026497,1,14372300,10201.97061
389,NSSW,48.677613,-122.166545,"SF NOOKSACK RIVER AT SAXON BRIDGE, WA",1,tributary,0,0,78014200,0,12210000,334.10871
390,SILO,44.715117,-123.887335,"SILETZ RIVER AT SILETZ, OR",1,tributary,1,0,78022282,1,14305500,523.17798
391,MPLO,44.062343,-123.883166,"SIUSLAW RIVER NR MAPLETON, OR",1,tributary,0,0,78021723,0,14307620,1522.91412
392,BCDW,46.772046,-122.924298,"SKOOKUMCHUCK RIVER NR BUCODA, WA",1,tributary,0,0,78018080,1,12026400,290.07888
393,TLMO,45.47594,-123.725121,WILSON RIVER NR TILLAMOOK,1,tributary,1,0,78020313,1,14301500,416.98839
394,YRPW,46.212436,-119.765683,YAKIMA RIVER NEAR PROSSER WA,1,yakima,0,0,78017612,1,,
395,YAQO,44.658056,-123.8375,"YAQUINA RIVER NEAR CHITWOOD,OR",1,tributary,0,0,78022425,0,14306030,183.88929
396,FSSO,45.703999,-123.755405,"NEHALEM RIVER NR FOSS, OR",1,tributary,1,0,78019756,1,14301000,1727.52333
397,BEAO,45.26649446,-123.847061,"NESTUCCA RIVER NEAR BEAVER, OR",1,tributary,0,0,78020196,0,14303600,466.1982
398,NEWW,46.620104,-122.945126,"NEWAUKUM RIVER NR CHEHALIS, WA",1,tributary,0,0,78018087,0,12025000,401.44845
399,KIDW,46.371775,-122.578999,NF TOUTLE RIVER BELOW SRS NR KID VALLEY,1,tributary,0,0,78018027,0,14240525,378.13854
400,NISW,46.752608,-122.083719,"NISQUALLY RIVER NR NATIONAL, WA",1,tributary,0,0,78018169,1,12082500,344.46867
401,NKSW,48.844832,-122.589339,"NOOKSACK RIVER AT FERNDALE, WA",1,tributary,1,0,78013830,0,12213100,2035.73214
402,PORTNEUF,42.871667,-112.468056,"Portneuf River at Pocatello, ID",1,tributary,1,0,78026697,1,,
403,ELEW,46.903716,-122.035109,"PUYALLUP RIVER NR ELECTRON, WA",1,tributary,0,0,78015646,1,12092000,240.351072
404,REXW,47.350662,-121.663158,"REX RIVER NR CEDAR FALLS, WA",1,tributary,0,0,78016735,1,12115500,34.705866
405,SQUW,47.545102,-121.842336,"SNOQUALMIE RIVER NEAR SNOQUALMIE, WA",1,tributary,0,0,78015903,1,12144500,971.24625
406,SOLW,48.044251,-123.959092,"SOLEDUCK RIVER NEAR FAIRHOLM, WA",1,tributary,0,0,78013967,0,12041500,217.041162
407,SCHW,46.545833,-123.131944,"SOUTH FORK CHEHALIS RIVER AT BOISTFORT, WA",1,tributary,0,0,78018179,0,12021000,124.31952
408,SSUW,47.340369,-123.280159,"SOUTH FORK SKOKOMISH RIVER NEAR UNION, WA",1,tributary,0,0,78016149,0,12060500,197.616237
409,SPEW,47.139546,-122.092614,"SOUTH PRAIRIE CREEK AT SOUTH PRAIRIE, WA",1,tributary,0,0,78016138,0,12095000,205.904205
410,THNW,48.672629,-121.072896,"THUNDER CREEK NEAR NEWHALEM, WA",1,tributary,0,0,78014338,1,12175500,271.94895
411,TLRW,47.693889,-121.687778,TOLT RESERVOIR INFLOW,1,tributary,0,0,78017082,1,,
412,TRAO,45.446218,-123.710397,"TRASK RIVER ABV CEDAR CREEK, NR TILLAMOOK",1,tributary,1,0,78020352,0,14302480,404.03844
413,EKTO,43.58595,-123.555373,"UMPQUA RIVER NR ELKTON, OR",1,tributary,1,0,78024139,1,14321000,9538.93317
